{"type": "FeatureCollection", "columns": {"ALTIT": "Integer", "COMUNE_CODISTAT": "Integer", "COMUNE_NOME": "String", "DESC_STAZ": "String", "ID_STAZ": "String", "Month": "Integer", "PROVINCIA_IDPROVINCIAISTAT": "Integer", "PROVINCIA_SIGLAPROVINCIA": "String", "VALORE": "Number", "X_LON": "Float", "Y_LAT": "Float", "Year": "Integer", "system:index": "String", "timestamp": "Long"}, "features": [{"type": "Feature", "geometry": {"type": "Point", "coordinates": [13.5491667, 37.3408318]}, "id": "0", "properties": {"ALTIT": 225, "COMUNE_CODISTAT": 84001, "COMUNE_NOME": "AGRIGENTO", "DESC_STAZ": "Agrigento Scibica", "ID_STAZ": "683", "Month": 6, "PROVINCIA_IDPROVINCIAISTAT": 84, "PROVINCIA_SIGLAPROVINCIA": "AG", "VALORE": 0, "X_LON": 13.5491667, "Y_LAT": 37.3408318, "Year": 2022, "timestamp": 1654041600000}}, {"type": "Feature", "geometry": {"type": "Point", "coordinates": [13.6358, 37.2377777]}, "id": "1", "properties": {"ALTIT": 40, "COMUNE_CODISTAT": 84001, "COMUNE_NOME": "AGRIGENTO", "DESC_STAZ": "Agrigento Mandrascava", "ID_STAZ": "684", "Month": 6, "PROVINCIA_IDPROVINCIAISTAT": 84, "PROVINCIA_SIGLAPROVINCIA": "AG", "VALORE": 0, "X_LON": 13.6358, "Y_LAT": 37.2377777, "Year": 2022, "timestamp": 1654041600000}}, {"type": "Feature", "geometry": {"type": "Point", "coordinates": [13.6241665, 37.458889]}, "id": "2", "properties": {"ALTIT": 305, "COMUNE_CODISTAT": 84003, "COMUNE_NOME": "ARAGONA", "DESC_STAZ": "Aragona", "ID_STAZ": "685", "Month": 6, "PROVINCIA_IDPROVINCIAISTAT": 84, "PROVINCIA_SIGLAPROVINCIA": "AG", "VALORE": 0, "X_LON": 13.6241665, "Y_LAT": 37.458889, "Year": 2022, "timestamp": 1654041600000}}, {"type": "Feature", "geometry": {"type": "Point", "coordinates": [13.4152775, 37.5955544]}, "id": "3", "properties": {"ALTIT": 350, "COMUNE_CODISTAT": 84004, "COMUNE_NOME": "BIVONA", "DESC_STAZ": "Bivona", "ID_STAZ": "686", "Month": 6, "PROVINCIA_IDPROVINCIAISTAT": 84, "PROVINCIA_SIGLAPROVINCIA": "AG", "VALORE": 0, "X_LON": 13.4152775, "Y_LAT": 37.5955544, "Year": 2022, "timestamp": 1654041600000}}, {"type": "Feature", "geometry": {"type": "Point", "coordinates": [13.7363892, 37.6322212]}, "id": "4", "properties": {"ALTIT": 350, "COMUNE_CODISTAT": 84009, "COMUNE_NOME": "CAMMARATA", "DESC_STAZ": "Cammarata", "ID_STAZ": "687", "Month": 6, "PROVINCIA_IDPROVINCIAISTAT": 84, "PROVINCIA_SIGLAPROVINCIA": "AG", "VALORE": 0, "X_LON": 13.7363892, "Y_LAT": 37.6322212, "Year": 2022, "timestamp": 1654041600000}}, {"type": "Feature", "geometry": {"type": "Point", "coordinates": [13.7733335, 37.3583336]}, "id": "5", "properties": {"ALTIT": 475, "COMUNE_CODISTAT": 84011, "COMUNE_NOME": "CANICATT\u00cc", "DESC_STAZ": "Canicatti", "ID_STAZ": "689", "Month": 6, "PROVINCIA_IDPROVINCIAISTAT": 84, "PROVINCIA_SIGLAPROVINCIA": "AG", "VALORE": 0, "X_LON": 13.7733335, "Y_LAT": 37.3583336, "Year": 2022, "timestamp": 1654041600000}}, {"type": "Feature", "geometry": {"type": "Point", "coordinates": [13.8889, 37.1556]}, "id": "6", "properties": {"ALTIT": 80, "COMUNE_CODISTAT": 84021, "COMUNE_NOME": "LICATA", "DESC_STAZ": "Licata", "ID_STAZ": "690", "Month": 6, "PROVINCIA_IDPROVINCIAISTAT": 84, "PROVINCIA_SIGLAPROVINCIA": "AG", "VALORE": 0, "X_LON": 13.8889, "Y_LAT": 37.1556, "Year": 2022, "timestamp": 1654041600000}}, {"type": "Feature", "geometry": {"type": "Point", "coordinates": [13.2663889, 37.4386]}, "id": "7", "properties": {"ALTIT": 30, "COMUNE_CODISTAT": 84033, "COMUNE_NOME": "RIBERA", "DESC_STAZ": "Ribera", "ID_STAZ": "693", "Month": 6, "PROVINCIA_IDPROVINCIAISTAT": 84, "PROVINCIA_SIGLAPROVINCIA": "AG", "VALORE": 0, "X_LON": 13.2663889, "Y_LAT": 37.4386, "Year": 2022, "timestamp": 1654041600000}}, {"type": "Feature", "geometry": {"type": "Point", "coordinates": [13.0397224, 37.5919]}, "id": "8", "properties": {"ALTIT": 90, "COMUNE_CODISTAT": 84041, "COMUNE_NOME": "SCIACCA", "DESC_STAZ": "Sciacca", "ID_STAZ": "694", "Month": 6, "PROVINCIA_IDPROVINCIAISTAT": 84, "PROVINCIA_SIGLAPROVINCIA": "AG", "VALORE": 0, "X_LON": 13.0397224, "Y_LAT": 37.5919, "Year": 2022, "timestamp": 1654041600000}}, {"type": "Feature", "geometry": {"type": "Point", "coordinates": [14.0502777, 37.4288902]}, "id": "9", "properties": {"ALTIT": 350, "COMUNE_CODISTAT": 85004, "COMUNE_NOME": "CALTANISSETTA", "DESC_STAZ": "Caltanissetta", "ID_STAZ": "695", "Month": 6, "PROVINCIA_IDPROVINCIAISTAT": 85, "PROVINCIA_SIGLAPROVINCIA": "CL", "VALORE": 0, "X_LON": 14.0502777, "Y_LAT": 37.4288902, "Year": 2022, "timestamp": 1654041600000}}, {"type": "Feature", "geometry": {"type": "Point", "coordinates": [13.9263887, 37.3406]}, "id": "10", "properties": {"ALTIT": 360, "COMUNE_CODISTAT": 85006, "COMUNE_NOME": "DELIA", "DESC_STAZ": "Delia", "ID_STAZ": "696", "Month": 6, "PROVINCIA_IDPROVINCIAISTAT": 85, "PROVINCIA_SIGLAPROVINCIA": "CL", "VALORE": 0, "X_LON": 13.9263887, "Y_LAT": 37.3406, "Year": 2022, "timestamp": 1654041600000}}, {"type": "Feature", "geometry": {"type": "Point", "coordinates": [14.3336, 37.1581]}, "id": "11", "properties": {"ALTIT": 70, "COMUNE_CODISTAT": 85007, "COMUNE_NOME": "GELA", "DESC_STAZ": "Gela", "ID_STAZ": "697", "Month": 6, "PROVINCIA_IDPROVINCIAISTAT": 85, "PROVINCIA_SIGLAPROVINCIA": "CL", "VALORE": 0, "X_LON": 14.3336, "Y_LAT": 37.1581, "Year": 2022, "timestamp": 1654041600000}}, {"type": "Feature", "geometry": {"type": "Point", "coordinates": [14.1136, 37.135]}, "id": "12", "properties": {"ALTIT": 54, "COMUNE_CODISTAT": 85003, "COMUNE_NOME": "BUTERA", "DESC_STAZ": "Butera", "ID_STAZ": "698", "Month": 6, "PROVINCIA_IDPROVINCIAISTAT": 85, "PROVINCIA_SIGLAPROVINCIA": "CL", "VALORE": 0, "X_LON": 14.1136, "Y_LAT": 37.135, "Year": 2022, "timestamp": 1654041600000}}, {"type": "Feature", "geometry": {"type": "Point", "coordinates": [14.2138891, 37.2977791]}, "id": "13", "properties": {"ALTIT": 480, "COMUNE_CODISTAT": 85009, "COMUNE_NOME": "MAZZARINO", "DESC_STAZ": "Mazzarino", "ID_STAZ": "699", "Month": 6, "PROVINCIA_IDPROVINCIAISTAT": 85, "PROVINCIA_SIGLAPROVINCIA": "CL", "VALORE": 0, "X_LON": 14.2138891, "Y_LAT": 37.2977791, "Year": 2022, "timestamp": 1654041600000}}, {"type": "Feature", "geometry": {"type": "Point", "coordinates": [13.8313885, 37.5627785]}, "id": "14", "properties": {"ALTIT": 375, "COMUNE_CODISTAT": 85012, "COMUNE_NOME": "MUSSOMELI", "DESC_STAZ": "Mussomeli", "ID_STAZ": "700", "Month": 6, "PROVINCIA_IDPROVINCIAISTAT": 85, "PROVINCIA_SIGLAPROVINCIA": "CL", "VALORE": 0.2, "X_LON": 13.8313885, "Y_LAT": 37.5627785, "Year": 2022, "timestamp": 1654041600000}}, {"type": "Feature", "geometry": {"type": "Point", "coordinates": [14.0891666, 37.2758331]}, "id": "15", "properties": {"ALTIT": 300, "COMUNE_CODISTAT": 85015, "COMUNE_NOME": "RIESI", "DESC_STAZ": "Riesi", "ID_STAZ": "701", "Month": 6, "PROVINCIA_IDPROVINCIAISTAT": 85, "PROVINCIA_SIGLAPROVINCIA": "CL", "VALORE": 0, "X_LON": 14.0891666, "Y_LAT": 37.2758331, "Year": 2022, "timestamp": 1654041600000}}, {"type": "Feature", "geometry": {"type": "Point", "coordinates": [13.85, 37.7061]}, "id": "16", "properties": {"ALTIT": 500, "COMUNE_CODISTAT": 82069, "COMUNE_NOME": "SCLAFANI BAGNI", "DESC_STAZ": "Sclafani Bagni", "ID_STAZ": "703", "Month": 6, "PROVINCIA_IDPROVINCIAISTAT": 82, "PROVINCIA_SIGLAPROVINCIA": "PA", "VALORE": 0, "X_LON": 13.85, "Y_LAT": 37.7061, "Year": 2022, "timestamp": 1654041600000}}, {"type": "Feature", "geometry": {"type": "Point", "coordinates": [14.7861, 37.7541656]}, "id": "17", "properties": {"ALTIT": 424, "COMUNE_CODISTAT": 87009, "COMUNE_NOME": "BRONTE", "DESC_STAZ": "Bronte", "ID_STAZ": "705", "Month": 6, "PROVINCIA_IDPROVINCIAISTAT": 87, "PROVINCIA_SIGLAPROVINCIA": "CT", "VALORE": 0, "X_LON": 14.7861, "Y_LAT": 37.7541656, "Year": 2022, "timestamp": 1654041600000}}, {"type": "Feature", "geometry": {"type": "Point", "coordinates": [15.0688887, 37.4433327]}, "id": "18", "properties": {"ALTIT": 10, "COMUNE_CODISTAT": 87015, "COMUNE_NOME": "CATANIA", "DESC_STAZ": "Catania", "ID_STAZ": "706", "Month": 6, "PROVINCIA_IDPROVINCIAISTAT": 87, "PROVINCIA_SIGLAPROVINCIA": "CT", "VALORE": 0, "X_LON": 15.0688887, "Y_LAT": 37.4433327, "Year": 2022, "timestamp": 1654041600000}}, {"type": "Feature", "geometry": {"type": "Point", "coordinates": [15.1983337, 37.6853]}, "id": "19", "properties": {"ALTIT": 50, "COMUNE_CODISTAT": 87039, "COMUNE_NOME": "RIPOSTO", "DESC_STAZ": "Riposto", "ID_STAZ": "707", "Month": 6, "PROVINCIA_IDPROVINCIAISTAT": 87, "PROVINCIA_SIGLAPROVINCIA": "CT", "VALORE": 0, "X_LON": 15.1983337, "Y_LAT": 37.6853, "Year": 2022, "timestamp": 1654041600000}}, {"type": "Feature", "geometry": {"type": "Point", "coordinates": [15.1313887, 37.8277779]}, "id": "20", "properties": {"ALTIT": 590, "COMUNE_CODISTAT": 87021, "COMUNE_NOME": "LINGUAGLOSSA", "DESC_STAZ": "Linguaglossa", "ID_STAZ": "708", "Month": 6, "PROVINCIA_IDPROVINCIAISTAT": 87, "PROVINCIA_SIGLAPROVINCIA": "CT", "VALORE": 0, "X_LON": 15.1313887, "Y_LAT": 37.8277779, "Year": 2022, "timestamp": 1654041600000}}, {"type": "Feature", "geometry": {"type": "Point", "coordinates": [14.8731, 37.8278]}, "id": "21", "properties": {"ALTIT": 1040, "COMUNE_CODISTAT": 87022, "COMUNE_NOME": "MALETTO", "DESC_STAZ": "Maletto", "ID_STAZ": "709", "Month": 6, "PROVINCIA_IDPROVINCIAISTAT": 87, "PROVINCIA_SIGLAPROVINCIA": "CT", "VALORE": 0, "X_LON": 14.8731, "Y_LAT": 37.8278, "Year": 2022, "timestamp": 1654041600000}}, {"type": "Feature", "geometry": {"type": "Point", "coordinates": [14.5616665, 37.0961113]}, "id": "22", "properties": {"ALTIT": 300, "COMUNE_CODISTAT": 87056, "COMUNE_NOME": "MAZZARRONE", "DESC_STAZ": "Mazzarrone", "ID_STAZ": "710", "Month": 6, "PROVINCIA_IDPROVINCIAISTAT": 87, "PROVINCIA_SIGLAPROVINCIA": "CT", "VALORE": 0, "X_LON": 14.5616665, "Y_LAT": 37.0961113, "Year": 2022, "timestamp": 1654041600000}}, {"type": "Feature", "geometry": {"type": "Point", "coordinates": [14.7264, 37.3211098]}, "id": "23", "properties": {"ALTIT": 205, "COMUNE_CODISTAT": 87027, "COMUNE_NOME": "MINEO", "DESC_STAZ": "Mineo", "ID_STAZ": "711", "Month": 6, "PROVINCIA_IDPROVINCIAISTAT": 87, "PROVINCIA_SIGLAPROVINCIA": "CT", "VALORE": 0, "X_LON": 14.7264, "Y_LAT": 37.3211098, "Year": 2022, "timestamp": 1654041600000}}, {"type": "Feature", "geometry": {"type": "Point", "coordinates": [14.855, 37.5155563]}, "id": "24", "properties": {"ALTIT": 100, "COMUNE_CODISTAT": 87033, "COMUNE_NOME": "PATERN\u00d2", "DESC_STAZ": "Paterno", "ID_STAZ": "712", "Month": 6, "PROVINCIA_IDPROVINCIAISTAT": 87, "PROVINCIA_SIGLAPROVINCIA": "CT", "VALORE": 0, "X_LON": 14.855, "Y_LAT": 37.5155563, "Year": 2022, "timestamp": 1654041600000}}, {"type": "Feature", "geometry": {"type": "Point", "coordinates": [15.0492, 37.6444]}, "id": "25", "properties": {"ALTIT": 810, "COMUNE_CODISTAT": 87034, "COMUNE_NOME": "PEDARA", "DESC_STAZ": "Pedara", "ID_STAZ": "713", "Month": 6, "PROVINCIA_IDPROVINCIAISTAT": 87, "PROVINCIA_SIGLAPROVINCIA": "CT", "VALORE": 0, "X_LON": 15.0492, "Y_LAT": 37.6444, "Year": 2022, "timestamp": 1654041600000}}, {"type": "Feature", "geometry": {"type": "Point", "coordinates": [14.979722, 37.8894463]}, "id": "26", "properties": {"ALTIT": 680, "COMUNE_CODISTAT": 87038, "COMUNE_NOME": "RANDAZZO", "DESC_STAZ": "Randazzo", "ID_STAZ": "715", "Month": 6, "PROVINCIA_IDPROVINCIAISTAT": 87, "PROVINCIA_SIGLAPROVINCIA": "CT", "VALORE": 2, "X_LON": 14.979722, "Y_LAT": 37.8894463, "Year": 2022, "timestamp": 1654041600000}}, {"type": "Feature", "geometry": {"type": "Point", "coordinates": [14.5924997, 37.2380562]}, "id": "27", "properties": {"ALTIT": 480, "COMUNE_CODISTAT": 87011, "COMUNE_NOME": "CALTAGIRONE", "DESC_STAZ": "Caltagirone", "ID_STAZ": "716", "Month": 6, "PROVINCIA_IDPROVINCIAISTAT": 87, "PROVINCIA_SIGLAPROVINCIA": "CT", "VALORE": 0, "X_LON": 14.5924997, "Y_LAT": 37.2380562, "Year": 2022, "timestamp": 1654041600000}}, {"type": "Feature", "geometry": {"type": "Point", "coordinates": [14.4669, 37.4506]}, "id": "28", "properties": {"ALTIT": 350, "COMUNE_CODISTAT": 86002, "COMUNE_NOME": "AIDONE", "DESC_STAZ": "Aidone", "ID_STAZ": "717", "Month": 6, "PROVINCIA_IDPROVINCIAISTAT": 86, "PROVINCIA_SIGLAPROVINCIA": "EN", "VALORE": 0, "X_LON": 14.4669, "Y_LAT": 37.4506, "Year": 2022, "timestamp": 1654041600000}}, {"type": "Feature", "geometry": {"type": "Point", "coordinates": [14.1761112, 37.5175]}, "id": "29", "properties": {"ALTIT": 350, "COMUNE_CODISTAT": 86009, "COMUNE_NOME": "ENNA", "DESC_STAZ": "Enna", "ID_STAZ": "718", "Month": 6, "PROVINCIA_IDPROVINCIAISTAT": 86, "PROVINCIA_SIGLAPROVINCIA": "EN", "VALORE": 0, "X_LON": 14.1761112, "Y_LAT": 37.5175, "Year": 2022, "timestamp": 1654041600000}}, {"type": "Feature", "geometry": {"type": "Point", "coordinates": [14.4244, 37.7636108]}, "id": "30", "properties": {"ALTIT": 700, "COMUNE_CODISTAT": 86012, "COMUNE_NOME": "NICOSIA", "DESC_STAZ": "Nicosia", "ID_STAZ": "721", "Month": 6, "PROVINCIA_IDPROVINCIAISTAT": 86, "PROVINCIA_SIGLAPROVINCIA": "EN", "VALORE": 0.4, "X_LON": 14.4244, "Y_LAT": 37.7636108, "Year": 2022, "timestamp": 1654041600000}}, {"type": "Feature", "geometry": {"type": "Point", "coordinates": [14.3666668, 37.3172226]}, "id": "31", "properties": {"ALTIT": 575, "COMUNE_CODISTAT": 86014, "COMUNE_NOME": "PIAZZA ARMERINA", "DESC_STAZ": "Piazza Armerina", "ID_STAZ": "722", "Month": 6, "PROVINCIA_IDPROVINCIAISTAT": 86, "PROVINCIA_SIGLAPROVINCIA": "EN", "VALORE": 0, "X_LON": 14.3666668, "Y_LAT": 37.3172226, "Year": 2022, "timestamp": 1654041600000}}, {"type": "Feature", "geometry": {"type": "Point", "coordinates": [14.4897223, 38.0288887]}, "id": "32", "properties": {"ALTIT": 50, "COMUNE_CODISTAT": 83011, "COMUNE_NOME": "CARONIA", "DESC_STAZ": "Caronia Buzza", "ID_STAZ": "723", "Month": 6, "PROVINCIA_IDPROVINCIAISTAT": 83, "PROVINCIA_SIGLAPROVINCIA": "ME", "VALORE": 0, "X_LON": 14.4897223, "Y_LAT": 38.0288887, "Year": 2022, "timestamp": 1654041600000}}, {"type": "Feature", "geometry": {"type": "Point", "coordinates": [14.4866667, 37.8961]}, "id": "33", "properties": {"ALTIT": 1470, "COMUNE_CODISTAT": 83011, "COMUNE_NOME": "CARONIA", "DESC_STAZ": "Caronia Pomiere", "ID_STAZ": "724", "Month": 6, "PROVINCIA_IDPROVINCIAISTAT": 83, "PROVINCIA_SIGLAPROVINCIA": "ME", "VALORE": 0.4, "X_LON": 14.4866667, "Y_LAT": 37.8961, "Year": 2022, "timestamp": 1654041600000}}, {"type": "Feature", "geometry": {"type": "Point", "coordinates": [14.6797, 37.8386116]}, "id": "34", "properties": {"ALTIT": 857, "COMUNE_CODISTAT": 83017, "COMUNE_NOME": "CESAR\u00d2", "DESC_STAZ": "Cesaro Vignazza", "ID_STAZ": "725", "Month": 6, "PROVINCIA_IDPROVINCIAISTAT": 83, "PROVINCIA_SIGLAPROVINCIA": "ME", "VALORE": 0.4, "X_LON": 14.6797, "Y_LAT": 37.8386116, "Year": 2022, "timestamp": 1654041600000}}, {"type": "Feature", "geometry": {"type": "Point", "coordinates": [14.6944447, 37.9325]}, "id": "35", "properties": {"ALTIT": 1840, "COMUNE_CODISTAT": 83017, "COMUNE_NOME": "CESAR\u00d2", "DESC_STAZ": "Cesaro Monte Soro", "ID_STAZ": "726", "Month": 6, "PROVINCIA_IDPROVINCIAISTAT": 83, "PROVINCIA_SIGLAPROVINCIA": "ME", "VALORE": 0, "X_LON": 14.6944447, "Y_LAT": 37.9325, "Year": 2022, "timestamp": 1654041600000}}, {"type": "Feature", "geometry": {"type": "Point", "coordinates": [15.3741665, 38.0333328]}, "id": "36", "properties": {"ALTIT": 440, "COMUNE_CODISTAT": 83021, "COMUNE_NOME": "FIUMEDINISI", "DESC_STAZ": "Fiumedinisi", "ID_STAZ": "727", "Month": 6, "PROVINCIA_IDPROVINCIAISTAT": 83, "PROVINCIA_SIGLAPROVINCIA": "ME", "VALORE": 0, "X_LON": 15.3741665, "Y_LAT": 38.0333328, "Year": 2022, "timestamp": 1654041600000}}, {"type": "Feature", "geometry": {"type": "Point", "coordinates": [14.834444, 38.4789]}, "id": "37", "properties": {"ALTIT": 315, "COMUNE_CODISTAT": 83037, "COMUNE_NOME": "LENI", "DESC_STAZ": "Leni (Salina)", "ID_STAZ": "728", "Month": 6, "PROVINCIA_IDPROVINCIAISTAT": 83, "PROVINCIA_SIGLAPROVINCIA": "ME", "VALORE": 0, "X_LON": 14.834444, "Y_LAT": 38.4789, "Year": 2022, "timestamp": 1654041600000}}, {"type": "Feature", "geometry": {"type": "Point", "coordinates": [15.5611115, 38.2586098]}, "id": "38", "properties": {"ALTIT": 420, "COMUNE_CODISTAT": 83048, "COMUNE_NOME": "MESSINA", "DESC_STAZ": "Messina", "ID_STAZ": "729", "Month": 6, "PROVINCIA_IDPROVINCIAISTAT": 83, "PROVINCIA_SIGLAPROVINCIA": "ME", "VALORE": 5.4, "X_LON": 15.5611115, "Y_LAT": 38.2586098, "Year": 2022, "timestamp": 1654041600000}}, {"type": "Feature", "geometry": {"type": "Point", "coordinates": [14.6672, 38.0400009]}, "id": "39", "properties": {"ALTIT": 460, "COMUNE_CODISTAT": 83050, "COMUNE_NOME": "MILITELLO ROSMARINO", "DESC_STAZ": "Militello Rosmarino", "ID_STAZ": "730", "Month": 6, "PROVINCIA_IDPROVINCIAISTAT": 83, "PROVINCIA_SIGLAPROVINCIA": "ME", "VALORE": 0, "X_LON": 14.6672, "Y_LAT": 38.0400009, "Year": 2022, "timestamp": 1654041600000}}, {"type": "Feature", "geometry": {"type": "Point", "coordinates": [14.3402777, 37.8627777]}, "id": "40", "properties": {"ALTIT": 690, "COMUNE_CODISTAT": 83052, "COMUNE_NOME": "MISTRETTA", "DESC_STAZ": "Mistretta", "ID_STAZ": "731", "Month": 6, "PROVINCIA_IDPROVINCIAISTAT": 83, "PROVINCIA_SIGLAPROVINCIA": "ME", "VALORE": 1.6, "X_LON": 14.3402777, "Y_LAT": 37.8627777, "Year": 2022, "timestamp": 1654041600000}}, {"type": "Feature", "geometry": {"type": "Point", "coordinates": [14.7855558, 38.1056]}, "id": "41", "properties": {"ALTIT": 480, "COMUNE_CODISTAT": 83060, "COMUNE_NOME": "NASO", "DESC_STAZ": "Naso", "ID_STAZ": "733", "Month": 6, "PROVINCIA_IDPROVINCIAISTAT": 83, "PROVINCIA_SIGLAPROVINCIA": "ME", "VALORE": 0, "X_LON": 14.7855558, "Y_LAT": 38.1056, "Year": 2022, "timestamp": 1654041600000}}, {"type": "Feature", "geometry": {"type": "Point", "coordinates": [15.1411114, 38.0247231]}, "id": "42", "properties": {"ALTIT": 750, "COMUNE_CODISTAT": 83062, "COMUNE_NOME": "NOVARA DI SICILIA", "DESC_STAZ": "Novara di Sicilia", "ID_STAZ": "734", "Month": 6, "PROVINCIA_IDPROVINCIAISTAT": 83, "PROVINCIA_SIGLAPROVINCIA": "ME", "VALORE": 0.6, "X_LON": 15.1411114, "Y_LAT": 38.0247231, "Year": 2022, "timestamp": 1654041600000}}, {"type": "Feature", "geometry": {"type": "Point", "coordinates": [15.0194445, 38.1392]}, "id": "43", "properties": {"ALTIT": 85, "COMUNE_CODISTAT": 83066, "COMUNE_NOME": "PATTI", "DESC_STAZ": "Patti", "ID_STAZ": "735", "Month": 6, "PROVINCIA_IDPROVINCIAISTAT": 83, "PROVINCIA_SIGLAPROVINCIA": "ME", "VALORE": 2.2, "X_LON": 15.0194445, "Y_LAT": 38.1392, "Year": 2022, "timestamp": 1654041600000}}, {"type": "Feature", "geometry": {"type": "Point", "coordinates": [14.29, 37.9744453]}, "id": "44", "properties": {"ALTIT": 210, "COMUNE_CODISTAT": 83067, "COMUNE_NOME": "PETTINEO", "DESC_STAZ": "Pettineo", "ID_STAZ": "736", "Month": 6, "PROVINCIA_IDPROVINCIAISTAT": 83, "PROVINCIA_SIGLAPROVINCIA": "ME", "VALORE": 0, "X_LON": 14.29, "Y_LAT": 37.9744453, "Year": 2022, "timestamp": 1654041600000}}, {"type": "Feature", "geometry": {"type": "Point", "coordinates": [15.3597221, 38.1236]}, "id": "45", "properties": {"ALTIT": 617, "COMUNE_CODISTAT": 83080, "COMUNE_NOME": "SAN PIER NICETO", "DESC_STAZ": "San Pier Niceto", "ID_STAZ": "738", "Month": 6, "PROVINCIA_IDPROVINCIAISTAT": 83, "PROVINCIA_SIGLAPROVINCIA": "ME", "VALORE": 0.6, "X_LON": 15.3597221, "Y_LAT": 38.1236, "Year": 2022, "timestamp": 1654041600000}}, {"type": "Feature", "geometry": {"type": "Point", "coordinates": [15.3575001, 38.1914]}, "id": "46", "properties": {"ALTIT": 26, "COMUNE_CODISTAT": 83098, "COMUNE_NOME": "TORREGROTTA", "DESC_STAZ": "Torregrotta", "ID_STAZ": "739", "Month": 6, "PROVINCIA_IDPROVINCIAISTAT": 83, "PROVINCIA_SIGLAPROVINCIA": "ME", "VALORE": 1.2, "X_LON": 15.3575001, "Y_LAT": 38.1914, "Year": 2022, "timestamp": 1654041600000}}, {"type": "Feature", "geometry": {"type": "Point", "coordinates": [13.7453, 37.7433319]}, "id": "47", "properties": {"ALTIT": 560, "COMUNE_CODISTAT": 82001, "COMUNE_NOME": "ALIA", "DESC_STAZ": "Alia", "ID_STAZ": "740", "Month": 6, "PROVINCIA_IDPROVINCIAISTAT": 82, "PROVINCIA_SIGLAPROVINCIA": "PA", "VALORE": 0, "X_LON": 13.7453, "Y_LAT": 37.7433319, "Year": 2022, "timestamp": 1654041600000}}, {"type": "Feature", "geometry": {"type": "Point", "coordinates": [13.1011114, 37.9047241]}, "id": "48", "properties": {"ALTIT": 460, "COMUNE_CODISTAT": 82019, "COMUNE_NOME": "CAMPOREALE", "DESC_STAZ": "Camporeale", "ID_STAZ": "742", "Month": 6, "PROVINCIA_IDPROVINCIAISTAT": 82, "PROVINCIA_SIGLAPROVINCIA": "PA", "VALORE": 0, "X_LON": 13.1011114, "Y_LAT": 37.9047241, "Year": 2022, "timestamp": 1654041600000}}, {"type": "Feature", "geometry": {"type": "Point", "coordinates": [14.0897, 37.9741669]}, "id": "49", "properties": {"ALTIT": 430, "COMUNE_CODISTAT": 82022, "COMUNE_NOME": "CASTELBUONO", "DESC_STAZ": "Castelbuono", "ID_STAZ": "743", "Month": 6, "PROVINCIA_IDPROVINCIAISTAT": 82, "PROVINCIA_SIGLAPROVINCIA": "PA", "VALORE": 0, "X_LON": 14.0897, "Y_LAT": 37.9741669, "Year": 2022, "timestamp": 1654041600000}}, {"type": "Feature", "geometry": {"type": "Point", "coordinates": [13.0433, 37.7305565]}, "id": "50", "properties": {"ALTIT": 200, "COMUNE_CODISTAT": 82033, "COMUNE_NOME": "CONTESSA ENTELLINA", "DESC_STAZ": "Contessa Entellina", "ID_STAZ": "744", "Month": 6, "PROVINCIA_IDPROVINCIAISTAT": 82, "PROVINCIA_SIGLAPROVINCIA": "PA", "VALORE": 0, "X_LON": 13.0433, "Y_LAT": 37.7305565, "Year": 2022, "timestamp": 1654041600000}}, {"type": "Feature", "geometry": {"type": "Point", "coordinates": [13.2508335, 37.8041649]}, "id": "51", "properties": {"ALTIT": 422, "COMUNE_CODISTAT": 82034, "COMUNE_NOME": "CORLEONE", "DESC_STAZ": "Corleone", "ID_STAZ": "745", "Month": 6, "PROVINCIA_IDPROVINCIAISTAT": 82, "PROVINCIA_SIGLAPROVINCIA": "PA", "VALORE": 0, "X_LON": 13.2508335, "Y_LAT": 37.8041649, "Year": 2022, "timestamp": 1654041600000}}, {"type": "Feature", "geometry": {"type": "Point", "coordinates": [13.9203, 38.0002785]}, "id": "52", "properties": {"ALTIT": 55, "COMUNE_CODISTAT": 82044, "COMUNE_NOME": "LASCARI", "DESC_STAZ": "Lascari", "ID_STAZ": "746", "Month": 6, "PROVINCIA_IDPROVINCIAISTAT": 82, "PROVINCIA_SIGLAPROVINCIA": "PA", "VALORE": 0, "X_LON": 13.9203, "Y_LAT": 38.0002785, "Year": 2022, "timestamp": 1654041600000}}, {"type": "Feature", "geometry": {"type": "Point", "coordinates": [13.4955559, 37.8516655]}, "id": "53", "properties": {"ALTIT": 390, "COMUNE_CODISTAT": 82047, "COMUNE_NOME": "MEZZOJUSO", "DESC_STAZ": "Mezzojuso", "ID_STAZ": "747", "Month": 6, "PROVINCIA_IDPROVINCIAISTAT": 82, "PROVINCIA_SIGLAPROVINCIA": "PA", "VALORE": 0, "X_LON": 13.4955559, "Y_LAT": 37.8516655, "Year": 2022, "timestamp": 1654041600000}}, {"type": "Feature", "geometry": {"type": "Point", "coordinates": [13.4433336, 38.0319443]}, "id": "54", "properties": {"ALTIT": 160, "COMUNE_CODISTAT": 82048, "COMUNE_NOME": "MISILMERI", "DESC_STAZ": "Misilmeri", "ID_STAZ": "748", "Month": 6, "PROVINCIA_IDPROVINCIAISTAT": 82, "PROVINCIA_SIGLAPROVINCIA": "PA", "VALORE": 0, "X_LON": 13.4433336, "Y_LAT": 38.0319443, "Year": 2022, "timestamp": 1654041600000}}, {"type": "Feature", "geometry": {"type": "Point", "coordinates": [13.2600002, 38.0258331]}, "id": "55", "properties": {"ALTIT": 612, "COMUNE_CODISTAT": 82049, "COMUNE_NOME": "MONREALE", "DESC_STAZ": "Monreale Vigna Api", "ID_STAZ": "749", "Month": 6, "PROVINCIA_IDPROVINCIAISTAT": 82, "PROVINCIA_SIGLAPROVINCIA": "PA", "VALORE": 0.2, "X_LON": 13.2600002, "Y_LAT": 38.0258331, "Year": 2022, "timestamp": 1654041600000}}, {"type": "Feature", "geometry": {"type": "Point", "coordinates": [13.3288889, 38.1311111]}, "id": "56", "properties": {"ALTIT": 50, "COMUNE_CODISTAT": 82053, "COMUNE_NOME": "PALERMO", "DESC_STAZ": "Palermo", "ID_STAZ": "750", "Month": 6, "PROVINCIA_IDPROVINCIAISTAT": 82, "PROVINCIA_SIGLAPROVINCIA": "PA", "VALORE": 0, "X_LON": 13.3288889, "Y_LAT": 38.1311111, "Year": 2022, "timestamp": 1654041600000}}, {"type": "Feature", "geometry": {"type": "Point", "coordinates": [13.0947218, 38.0666656]}, "id": "57", "properties": {"ALTIT": 120, "COMUNE_CODISTAT": 82054, "COMUNE_NOME": "PARTINICO", "DESC_STAZ": "Partinico", "ID_STAZ": "751", "Month": 6, "PROVINCIA_IDPROVINCIAISTAT": 82, "PROVINCIA_SIGLAPROVINCIA": "PA", "VALORE": 0, "X_LON": 13.0947218, "Y_LAT": 38.0666656, "Year": 2022, "timestamp": 1654041600000}}, {"type": "Feature", "geometry": {"type": "Point", "coordinates": [14.1944447, 37.8161]}, "id": "58", "properties": {"ALTIT": 830, "COMUNE_CODISTAT": 82036, "COMUNE_NOME": "GANGI", "DESC_STAZ": "Gangi", "ID_STAZ": "752", "Month": 6, "PROVINCIA_IDPROVINCIAISTAT": 82, "PROVINCIA_SIGLAPROVINCIA": "PA", "VALORE": 0.2, "X_LON": 14.1944447, "Y_LAT": 37.8161, "Year": 2022, "timestamp": 1654041600000}}, {"type": "Feature", "geometry": {"type": "Point", "coordinates": [14.0116663, 37.6336]}, "id": "59", "properties": {"ALTIT": 720, "COMUNE_CODISTAT": 82056, "COMUNE_NOME": "PETRALIA SOTTANA", "DESC_STAZ": "Petralia Sottana", "ID_STAZ": "753", "Month": 6, "PROVINCIA_IDPROVINCIAISTAT": 82, "PROVINCIA_SIGLAPROVINCIA": "PA", "VALORE": 0, "X_LON": 14.0116663, "Y_LAT": 37.6336, "Year": 2022, "timestamp": 1654041600000}}, {"type": "Feature", "geometry": {"type": "Point", "coordinates": [13.9961109, 37.8244438]}, "id": "60", "properties": {"ALTIT": 650, "COMUNE_CODISTAT": 82058, "COMUNE_NOME": "POLIZZI GENEROSA", "DESC_STAZ": "Polizzi Generosa", "ID_STAZ": "754", "Month": 6, "PROVINCIA_IDPROVINCIAISTAT": 82, "PROVINCIA_SIGLAPROVINCIA": "PA", "VALORE": 0.4, "X_LON": 13.9961109, "Y_LAT": 37.8244438, "Year": 2022, "timestamp": 1654041600000}}, {"type": "Feature", "geometry": {"type": "Point", "coordinates": [13.6127777, 37.9719]}, "id": "61", "properties": {"ALTIT": 350, "COMUNE_CODISTAT": 82070, "COMUNE_NOME": "TERMINI IMERESE", "DESC_STAZ": "Termini Imerese", "ID_STAZ": "755", "Month": 6, "PROVINCIA_IDPROVINCIAISTAT": 82, "PROVINCIA_SIGLAPROVINCIA": "PA", "VALORE": 0, "X_LON": 13.6127777, "Y_LAT": 37.9719, "Year": 2022, "timestamp": 1654041600000}}, {"type": "Feature", "geometry": {"type": "Point", "coordinates": [14.6769447, 36.9550018]}, "id": "62", "properties": {"ALTIT": 703, "COMUNE_CODISTAT": 88009, "COMUNE_NOME": "RAGUSA", "DESC_STAZ": "Ragusa", "ID_STAZ": "756", "Month": 6, "PROVINCIA_IDPROVINCIAISTAT": 88, "PROVINCIA_SIGLAPROVINCIA": "RG", "VALORE": 0, "X_LON": 14.6769447, "Y_LAT": 36.9550018, "Year": 2022, "timestamp": 1654041600000}}, {"type": "Feature", "geometry": {"type": "Point", "coordinates": [14.5941668, 37.0136108]}, "id": "63", "properties": {"ALTIT": 220, "COMUNE_CODISTAT": 88003, "COMUNE_NOME": "COMISO", "DESC_STAZ": "Comiso", "ID_STAZ": "757", "Month": 6, "PROVINCIA_IDPROVINCIAISTAT": 88, "PROVINCIA_SIGLAPROVINCIA": "RG", "VALORE": 0, "X_LON": 14.5941668, "Y_LAT": 37.0136108, "Year": 2022, "timestamp": 1654041600000}}, {"type": "Feature", "geometry": {"type": "Point", "coordinates": [14.9936113, 36.7299995]}, "id": "64", "properties": {"ALTIT": 30, "COMUNE_CODISTAT": 88005, "COMUNE_NOME": "ISPICA", "DESC_STAZ": "Ispica", "ID_STAZ": "758", "Month": 6, "PROVINCIA_IDPROVINCIAISTAT": 88, "PROVINCIA_SIGLAPROVINCIA": "RG", "VALORE": 0, "X_LON": 14.9936113, "Y_LAT": 36.7299995, "Year": 2022, "timestamp": 1654041600000}}, {"type": "Feature", "geometry": {"type": "Point", "coordinates": [14.9022, 36.8828]}, "id": "65", "properties": {"ALTIT": 300, "COMUNE_CODISTAT": 88006, "COMUNE_NOME": "MODICA", "DESC_STAZ": "Modica", "ID_STAZ": "759", "Month": 6, "PROVINCIA_IDPROVINCIAISTAT": 88, "PROVINCIA_SIGLAPROVINCIA": "RG", "VALORE": 0, "X_LON": 14.9022, "Y_LAT": 36.8828, "Year": 2022, "timestamp": 1654041600000}}, {"type": "Feature", "geometry": {"type": "Point", "coordinates": [14.5024996, 36.8358]}, "id": "66", "properties": {"ALTIT": 55, "COMUNE_CODISTAT": 88010, "COMUNE_NOME": "SANTA CROCE CAMERINA", "DESC_STAZ": "Santa Croce Camerina", "ID_STAZ": "760", "Month": 6, "PROVINCIA_IDPROVINCIAISTAT": 88, "PROVINCIA_SIGLAPROVINCIA": "RG", "VALORE": 0, "X_LON": 14.5024996, "Y_LAT": 36.8358, "Year": 2022, "timestamp": 1654041600000}}, {"type": "Feature", "geometry": {"type": "Point", "coordinates": [14.6767, 36.7605553]}, "id": "67", "properties": {"ALTIT": 30, "COMUNE_CODISTAT": 88011, "COMUNE_NOME": "SCICLI", "DESC_STAZ": "Scicli", "ID_STAZ": "761", "Month": 6, "PROVINCIA_IDPROVINCIAISTAT": 88, "PROVINCIA_SIGLAPROVINCIA": "RG", "VALORE": 0, "X_LON": 14.6767, "Y_LAT": 36.7605553, "Year": 2022, "timestamp": 1654041600000}}, {"type": "Feature", "geometry": {"type": "Point", "coordinates": [14.4008331, 36.9744453]}, "id": "68", "properties": {"ALTIT": 60, "COMUNE_CODISTAT": 88001, "COMUNE_NOME": "ACATE", "DESC_STAZ": "Acate", "ID_STAZ": "762", "Month": 6, "PROVINCIA_IDPROVINCIAISTAT": 88, "PROVINCIA_SIGLAPROVINCIA": "RG", "VALORE": 0, "X_LON": 14.4008331, "Y_LAT": 36.9744453, "Year": 2022, "timestamp": 1654041600000}}, {"type": "Feature", "geometry": {"type": "Point", "coordinates": [15.1499996, 37.2830544]}, "id": "69", "properties": {"ALTIT": 60, "COMUNE_CODISTAT": 89001, "COMUNE_NOME": "AUGUSTA", "DESC_STAZ": "Augusta", "ID_STAZ": "763", "Month": 6, "PROVINCIA_IDPROVINCIAISTAT": 89, "PROVINCIA_SIGLAPROVINCIA": "SR", "VALORE": 0, "X_LON": 15.1499996, "Y_LAT": 37.2830544, "Year": 2022, "timestamp": 1654041600000}}, {"type": "Feature", "geometry": {"type": "Point", "coordinates": [15.1591663, 37.0613899]}, "id": "70", "properties": {"ALTIT": 90, "COMUNE_CODISTAT": 89017, "COMUNE_NOME": "SIRACUSA", "DESC_STAZ": "Siracusa", "ID_STAZ": "764", "Month": 6, "PROVINCIA_IDPROVINCIAISTAT": 89, "PROVINCIA_SIGLAPROVINCIA": "SR", "VALORE": 0, "X_LON": 15.1591663, "Y_LAT": 37.0613899, "Year": 2022, "timestamp": 1654041600000}}, {"type": "Feature", "geometry": {"type": "Point", "coordinates": [14.8941669, 37.2452774]}, "id": "71", "properties": {"ALTIT": 100, "COMUNE_CODISTAT": 89010, "COMUNE_NOME": "FRANCOFONTE", "DESC_STAZ": "Francofonte", "ID_STAZ": "765", "Month": 6, "PROVINCIA_IDPROVINCIAISTAT": 89, "PROVINCIA_SIGLAPROVINCIA": "SR", "VALORE": 0, "X_LON": 14.8941669, "Y_LAT": 37.2452774, "Year": 2022, "timestamp": 1654041600000}}, {"type": "Feature", "geometry": {"type": "Point", "coordinates": [14.9258, 37.3422]}, "id": "72", "properties": {"ALTIT": 50, "COMUNE_CODISTAT": 89011, "COMUNE_NOME": "LENTINI", "DESC_STAZ": "Lentini", "ID_STAZ": "766", "Month": 6, "PROVINCIA_IDPROVINCIAISTAT": 89, "PROVINCIA_SIGLAPROVINCIA": "SR", "VALORE": 0, "X_LON": 14.9258, "Y_LAT": 37.3422, "Year": 2022, "timestamp": 1654041600000}}, {"type": "Feature", "geometry": {"type": "Point", "coordinates": [15.0574999, 36.8461113]}, "id": "73", "properties": {"ALTIT": 30, "COMUNE_CODISTAT": 89013, "COMUNE_NOME": "NOTO", "DESC_STAZ": "Noto", "ID_STAZ": "767", "Month": 6, "PROVINCIA_IDPROVINCIAISTAT": 89, "PROVINCIA_SIGLAPROVINCIA": "SR", "VALORE": 0, "X_LON": 15.0574999, "Y_LAT": 36.8461113, "Year": 2022, "timestamp": 1654041600000}}, {"type": "Feature", "geometry": {"type": "Point", "coordinates": [15.0952778, 36.6819458]}, "id": "74", "properties": {"ALTIT": 50, "COMUNE_CODISTAT": 89014, "COMUNE_NOME": "PACHINO", "DESC_STAZ": "Pachino", "ID_STAZ": "769", "Month": 6, "PROVINCIA_IDPROVINCIAISTAT": 89, "PROVINCIA_SIGLAPROVINCIA": "SR", "VALORE": 0, "X_LON": 15.0952778, "Y_LAT": 36.6819458, "Year": 2022, "timestamp": 1654041600000}}, {"type": "Feature", "geometry": {"type": "Point", "coordinates": [14.8716669, 37.0613899]}, "id": "75", "properties": {"ALTIT": 640, "COMUNE_CODISTAT": 89015, "COMUNE_NOME": "PALAZZOLO ACREIDE", "DESC_STAZ": "Palazzolo Acreide", "ID_STAZ": "770", "Month": 6, "PROVINCIA_IDPROVINCIAISTAT": 89, "PROVINCIA_SIGLAPROVINCIA": "SR", "VALORE": 0, "X_LON": 14.8716669, "Y_LAT": 37.0613899, "Year": 2022, "timestamp": 1654041600000}}, {"type": "Feature", "geometry": {"type": "Point", "coordinates": [12.8808336, 37.8556]}, "id": "76", "properties": {"ALTIT": 310, "COMUNE_CODISTAT": 81003, "COMUNE_NOME": "CALATAFIMI-SEGESTA", "DESC_STAZ": "Calatafimi", "ID_STAZ": "772", "Month": 6, "PROVINCIA_IDPROVINCIAISTAT": 81, "PROVINCIA_SIGLAPROVINCIA": "TP", "VALORE": 0, "X_LON": 12.8808336, "Y_LAT": 37.8556, "Year": 2022, "timestamp": 1654041600000}}, {"type": "Feature", "geometry": {"type": "Point", "coordinates": [12.8897219, 38.0138893]}, "id": "77", "properties": {"ALTIT": 95, "COMUNE_CODISTAT": 81005, "COMUNE_NOME": "CASTELLAMMARE DEL GOLFO", "DESC_STAZ": "Castellammare del Golfo", "ID_STAZ": "773", "Month": 6, "PROVINCIA_IDPROVINCIAISTAT": 81, "PROVINCIA_SIGLAPROVINCIA": "TP", "VALORE": 0, "X_LON": 12.8897219, "Y_LAT": 38.0138893, "Year": 2022, "timestamp": 1654041600000}}, {"type": "Feature", "geometry": {"type": "Point", "coordinates": [12.853056, 37.6472]}, "id": "78", "properties": {"ALTIT": 120, "COMUNE_CODISTAT": 81006, "COMUNE_NOME": "CASTELVETRANO", "DESC_STAZ": "Castelvetrano", "ID_STAZ": "774", "Month": 6, "PROVINCIA_IDPROVINCIAISTAT": 81, "PROVINCIA_SIGLAPROVINCIA": "TP", "VALORE": 0, "X_LON": 12.853056, "Y_LAT": 37.6472, "Year": 2022, "timestamp": 1654041600000}}, {"type": "Feature", "geometry": {"type": "Point", "coordinates": [12.5856, 38.0327759]}, "id": "79", "properties": {"ALTIT": 590, "COMUNE_CODISTAT": 81008, "COMUNE_NOME": "ERICE", "DESC_STAZ": "Erice", "ID_STAZ": "775", "Month": 6, "PROVINCIA_IDPROVINCIAISTAT": 81, "PROVINCIA_SIGLAPROVINCIA": "TP", "VALORE": 0, "X_LON": 12.5856, "Y_LAT": 38.0327759, "Year": 2022, "timestamp": 1654041600000}}, {"type": "Feature", "geometry": {"type": "Point", "coordinates": [12.5692, 37.8011093]}, "id": "80", "properties": {"ALTIT": 120, "COMUNE_CODISTAT": 81011, "COMUNE_NOME": "MARSALA", "DESC_STAZ": "Marsala", "ID_STAZ": "776", "Month": 6, "PROVINCIA_IDPROVINCIAISTAT": 81, "PROVINCIA_SIGLAPROVINCIA": "TP", "VALORE": 0, "X_LON": 12.5692, "Y_LAT": 37.8011093, "Year": 2022, "timestamp": 1654041600000}}, {"type": "Feature", "geometry": {"type": "Point", "coordinates": [12.6752777, 37.6792]}, "id": "81", "properties": {"ALTIT": 30, "COMUNE_CODISTAT": 81012, "COMUNE_NOME": "MAZARA DEL VALLO", "DESC_STAZ": "Mazara del Vallo", "ID_STAZ": "777", "Month": 6, "PROVINCIA_IDPROVINCIAISTAT": 81, "PROVINCIA_SIGLAPROVINCIA": "TP", "VALORE": 0, "X_LON": 12.6752777, "Y_LAT": 37.6792, "Year": 2022, "timestamp": 1654041600000}}, {"type": "Feature", "geometry": {"type": "Point", "coordinates": [12.7205553, 37.8188896]}, "id": "82", "properties": {"ALTIT": 280, "COMUNE_CODISTAT": 81018, "COMUNE_NOME": "SALEMI", "DESC_STAZ": "Salemi", "ID_STAZ": "778", "Month": 6, "PROVINCIA_IDPROVINCIAISTAT": 81, "PROVINCIA_SIGLAPROVINCIA": "TP", "VALORE": 0, "X_LON": 12.7205553, "Y_LAT": 37.8188896, "Year": 2022, "timestamp": 1654041600000}}, {"type": "Feature", "geometry": {"type": "Point", "coordinates": [12.5527782, 37.9419441]}, "id": "83", "properties": {"ALTIT": 50, "COMUNE_CODISTAT": 81021, "COMUNE_NOME": "TRAPANI", "DESC_STAZ": "Trapani Fontanasalsa", "ID_STAZ": "779", "Month": 6, "PROVINCIA_IDPROVINCIAISTAT": 81, "PROVINCIA_SIGLAPROVINCIA": "TP", "VALORE": 0, "X_LON": 12.5527782, "Y_LAT": 37.9419441, "Year": 2022, "timestamp": 1654041600000}}, {"type": "Feature", "geometry": {"type": "Point", "coordinates": [12.6614, 37.9475]}, "id": "84", "properties": {"ALTIT": 180, "COMUNE_CODISTAT": 81021, "COMUNE_NOME": "TRAPANI", "DESC_STAZ": "Trapani Fulgatore", "ID_STAZ": "780", "Month": 6, "PROVINCIA_IDPROVINCIAISTAT": 81, "PROVINCIA_SIGLAPROVINCIA": "TP", "VALORE": 0, "X_LON": 12.6614, "Y_LAT": 37.9475, "Year": 2022, "timestamp": 1654041600000}}, {"type": "Feature", "geometry": {"type": "Point", "coordinates": [14.9667, 37.9856]}, "id": "85", "properties": {"ALTIT": 1250, "COMUNE_CODISTAT": 83057, "COMUNE_NOME": "MONTALBANO ELICONA", "DESC_STAZ": "Montalbano Elicona", "ID_STAZ": "1380", "Month": 6, "PROVINCIA_IDPROVINCIAISTAT": 83, "PROVINCIA_SIGLAPROVINCIA": "ME", "VALORE": 0, "X_LON": 14.9667, "Y_LAT": 37.9856, "Year": 2022, "timestamp": 1654041600000}}, {"type": "Feature", "geometry": {"type": "Point", "coordinates": [13.23, 37.6328]}, "id": "86", "properties": {"ALTIT": 260, "COMUNE_CODISTAT": 82039, "COMUNE_NOME": "GIULIANA", "DESC_STAZ": "Giuliana", "ID_STAZ": "1381", "Month": 6, "PROVINCIA_IDPROVINCIAISTAT": 82, "PROVINCIA_SIGLAPROVINCIA": "PA", "VALORE": 0, "X_LON": 13.23, "Y_LAT": 37.6328, "Year": 2022, "timestamp": 1654041600000}}, {"type": "Feature", "geometry": {"type": "Point", "coordinates": [13.4217, 37.6883]}, "id": "87", "properties": {"ALTIT": 1110, "COMUNE_CODISTAT": 82060, "COMUNE_NOME": "PRIZZI", "DESC_STAZ": "Prizzi", "ID_STAZ": "1382", "Month": 6, "PROVINCIA_IDPROVINCIAISTAT": 82, "PROVINCIA_SIGLAPROVINCIA": "PA", "VALORE": 0, "X_LON": 13.4217, "Y_LAT": 37.6883, "Year": 2022, "timestamp": 1654041600000}}, {"type": "Feature", "geometry": {"type": "Point", "coordinates": [14.5022, 37.6319]}, "id": "88", "properties": {"ALTIT": 467, "COMUNE_CODISTAT": 86001, "COMUNE_NOME": "AGIRA", "DESC_STAZ": "Agira", "ID_STAZ": "1383", "Month": 6, "PROVINCIA_IDPROVINCIAISTAT": 86, "PROVINCIA_SIGLAPROVINCIA": "EN", "VALORE": 0, "X_LON": 14.5022, "Y_LAT": 37.6319, "Year": 2022, "timestamp": 1654041600000}}, {"type": "Feature", "geometry": {"type": "Point", "coordinates": [15.2608, 37.9783]}, "id": "89", "properties": {"ALTIT": 796, "COMUNE_CODISTAT": 83004, "COMUNE_NOME": "ANTILLO", "DESC_STAZ": "Antillo", "ID_STAZ": "1384", "Month": 6, "PROVINCIA_IDPROVINCIAISTAT": 83, "PROVINCIA_SIGLAPROVINCIA": "ME", "VALORE": 0, "X_LON": 15.2608, "Y_LAT": 37.9783, "Year": 2022, "timestamp": 1654041600000}}, {"type": "Feature", "geometry": {"type": "Point", "coordinates": [14.2272, 37.6708]}, "id": "90", "properties": {"ALTIT": 650, "COMUNE_CODISTAT": 86005, "COMUNE_NOME": "CALASCIBETTA", "DESC_STAZ": "Calascibetta", "ID_STAZ": "1385", "Month": 6, "PROVINCIA_IDPROVINCIAISTAT": 86, "PROVINCIA_SIGLAPROVINCIA": "EN", "VALORE": 0, "X_LON": 14.2272, "Y_LAT": 37.6708, "Year": 2022, "timestamp": 1654041600000}}, {"type": "Feature", "geometry": {"type": "Point", "coordinates": [13.3681, 37.8781]}, "id": "91", "properties": {"ALTIT": 730, "COMUNE_CODISTAT": 82049, "COMUNE_NOME": "MONREALE", "DESC_STAZ": "Monreale Bifarera", "ID_STAZ": "1386", "Month": 6, "PROVINCIA_IDPROVINCIAISTAT": 82, "PROVINCIA_SIGLAPROVINCIA": "PA", "VALORE": 0, "X_LON": 13.3681, "Y_LAT": 37.8781, "Year": 2022, "timestamp": 1654041600000}}, {"type": "Feature", "geometry": {"type": "Point", "coordinates": [14.6336, 37.4811]}, "id": "92", "properties": {"ALTIT": 263, "COMUNE_CODISTAT": 87037, "COMUNE_NOME": "RAMACCA", "DESC_STAZ": "Ramacca Giumarra", "ID_STAZ": "1404", "Month": 6, "PROVINCIA_IDPROVINCIAISTAT": 87, "PROVINCIA_SIGLAPROVINCIA": "CT", "VALORE": 0, "X_LON": 14.6336, "Y_LAT": 37.4811, "Year": 2022, "timestamp": 1654041600000}}, {"type": "Feature", "geometry": {"type": "Point", "coordinates": [11.9544, 36.7944]}, "id": "93", "properties": {"ALTIT": 156, "COMUNE_CODISTAT": 81014, "COMUNE_NOME": "PANTELLERIA", "DESC_STAZ": "Pantelleria", "ID_STAZ": "1424", "Month": 6, "PROVINCIA_IDPROVINCIAISTAT": 81, "PROVINCIA_SIGLAPROVINCIA": "TP", "VALORE": 0, "X_LON": 11.9544, "Y_LAT": 36.7944, "Year": 2022, "timestamp": 1654041600000}}, {"type": "Feature", "geometry": {"type": "Point", "coordinates": [15.0347, 37.7903]}, "id": "94", "properties": {"ALTIT": 1875, "COMUNE_CODISTAT": 87021, "COMUNE_NOME": "LINGUAGLOSSA", "DESC_STAZ": "Linguaglossa Etna Nord", "ID_STAZ": "1444", "Month": 6, "PROVINCIA_IDPROVINCIAISTAT": 87, "PROVINCIA_SIGLAPROVINCIA": "CT", "VALORE": 0, "X_LON": 15.0347, "Y_LAT": 37.7903, "Year": 2022, "timestamp": 1654041600000}}]}